date,time,millis,ax,ay,az,rollrate,pitchrate,yawrate,roll,pitch,yaw,speed,course,latitude,longitude,altitude,pdop,hdop,vdop,epe,fix,satellites_view,satellites_used,temp
270614,113547400,1403868947597.917,-0.3628,-1.0982,-9.8452,-0.1391,-0.626,0.4869,6.3733,-1.6358,165.3203,0.64,334.54,51.039464,13.79306,142.23,2.44,1.32,2.05,4.0,3,8,8,34.84
270614,113547400,1403868947618.4932,-0.2647,-1.1473,-9.9139,-0.0695,-0.4869,0.3478,6.2666,-1.5595,165.1223,0.64,334.54,51.039464,13.79306,142.23,2.44,1.32,2.05,4.0,3,8,8,34.84
270614,113547400,1403868947637.46,-0.2451,-1.0688,-10.0217,-0.2782,-0.5565,0.2782,6.2518,-1.5346,164.9825,0.64,334.54,51.039464,13.79306,142.23,2.44,1.32,2.05,4.0,3,8,8,34.84
270614,113547400,1403868947658.907,-0.3726,-1.1178,-9.8943,-0.2086,-0.5565,0.4869,6.2188,-1.7518,164.8566,0.64,334.63,51.039464,13.79306,142.23,2.44,1.32,2.05,4.0,3,8,8,34.84
270614,113547500,1403868947678.2998,-0.3334,-1.0982,-9.9335,-0.2086,-0.4869,0.5565,6.4872,-1.8032,164.901,0.64,334.63,51.039464,13.79306,142.23,2.44,1.32,2.05,4.0,3,8,8,34.84
270614,113547500,1403868947697.4521,-0.3039,-1.0884,-9.8648,-0.2086,-0.5565,0.4173,6.5801,-1.7387,164.8979,0.64,334.63,51.039465,13.79306,142.23,2.44,1.32,2.05,4.0,3,8,8,34.84
270614,113547500,1403868947717.9922,-0.3334,-1.1375,-9.8746,-0.0695,-0.3478,0.3478,6.4864,-1.7574,164.9173,0.64,334.63,51.039465,13.79306,142.23,2.44,1.32,2.05,4.0,3,8,8,34.84
270614,113547500,1403868947738.3152,-0.2941,-1.1571,-9.9629,-0.2086,-0.6956,0.626,6.506,-1.7949,164.9539,0.64,334.63,51.039465,13.79306,142.23,2.44,1.32,2.05,4.0,3,8,8,34.84
270614,113547500,1403868947758.2969,-0.3628,-1.108,-9.9825,-0.0695,-0.4869,0.3478,6.6264,-1.7895,165.0179,0.64,334.63,51.039465,13.79306,142.23,2.44,1.32,2.05,4.0,3,8,8,34.84
270614,113547600,1403868947777.978,-0.3628,-1.1375,-9.8256,0.0695,-0.4869,0.3478,6.5399,-1.824,165.033,0.64,334.72,51.039465,13.79306,142.23,2.44,1.32,2.05,4.0,3,8,8,34.84
270614,113547600,1403868947798.329,-0.2451,-1.108,-9.8746,0.0695,-0.4173,0.4869,6.4663,-1.6914,165.0565,0.64,334.72,51.039465,13.79306,142.23,2.45,1.33,2.05,4.01,3,8,8,34.84
270614,113547600,1403868947818.6208,-0.3137,-1.0982,-10.0021,-0.1391,-0.4869,0.2782,6.3675,-1.6898,165.0012,0.64,334.72,51.039465,13.79306,142.23,2.45,1.33,2.05,4.01,3,8,8,34.84
270614,113547600,1403868947840.7031,-0.2941,-1.1963,-9.8746,-0.2782,-0.5565,0.2782,6.4399,-1.7305,164.9754,0.64,334.72,51.039465,13.79306,142.22,2.45,1.33,2.05,4.01,3,8,8,34.84
270614,113547600,1403868947859.046,-0.4118,-1.1375,-9.9923,-0.1391,-0.5565,0.3478,6.399,-1.762,164.9388,0.64,334.72,51.039465,13.79306,142.22,2.45,1.33,2.05,4.01,3,8,8,34.84
270614,113547700,1403868947878.344,-0.2745,-1.1571,-9.9237,0.0,-0.4869,0.4173,6.5281,-1.66,164.9589,0.64,334.81,51.039465,13.79306,142.22,2.45,1.33,2.05,4.01,3,8,8,34.84
270614,113547700,1403868947897.6592,-0.2255,-1.0884,-9.8844,-0.0695,-0.3478,0.2782,6.5359,-1.6342,164.9833,0.64,334.81,51.039465,13.79306,142.22,2.44,1.32,2.05,4.01,3,8,8,34.84
270614,113547700,1403868947917.907,-0.2549,-1.1473,-9.8844,-0.2086,-0.4173,0.3478,6.5297,-1.5819,165.0211,0.64,334.81,51.039465,13.79306,142.22,2.44,1.32,2.05,4.01,3,8,8,34.84
270614,113547700,1403868947938.489,-0.353,-1.1767,-9.9433,-0.0695,-0.4173,0.4869,6.5097,-1.6484,165.0589,0.64,334.81,51.039465,13.79306,142.22,2.44,1.32,2.05,4.01,3,8,8,34.84
270614,113547700,1403868947959.712,-0.3235,-1.2061,-9.9139,-0.2086,-0.4173,0.3478,6.5443,-1.6208,165.0559,0.64,334.81,51.039465,13.79306,142.22,2.44,1.32,2.05,4.01,3,8,8,34.84
270614,113547800,1403868947979.23,-0.3334,-1.1963,-9.9433,-0.2782,-0.5565,0.4869,6.6256,-1.8227,165.0454,0.64,334.9,51.039465,13.79306,142.22,2.44,1.32,2.05,4.01,3,8,8,34.84
270614,113547800,1403868948001.652,-0.3039,-1.1276,-9.9433,-0.2086,-0.4869,0.2782,6.5484,-1.5676,165.033,0.64,334.9,51.039465,13.79306,142.22,2.44,1.32,2.05,4.01,3,8,8,34.84
270614,113547800,1403868948018.363,-0.2353,-1.1865,-10.0021,-0.2086,-0.4173,0.4869,6.4954,-1.5349,164.9789,0.64,334.9,51.039465,13.79306,142.22,2.44,1.32,2.05,4.01,3,8,8,34.84
270614,113547800,1403868948040.032,-0.2941,-1.1669,-9.8943,-0.0695,-0.5565,0.5565,6.4351,-1.7195,164.9394,0.64,334.9,51.039465,13.79306,142.22,2.44,1.32,2.05,4.01,3,8,8,34.84
270614,113547800,1403868948057.957,-0.3432,-1.1767,-9.9237,-0.1391,-0.4869,0.4869,6.4529,-1.8581,164.9143,0.64,334.9,51.039465,13.79306,142.22,2.44,1.32,2.05,4.01,3,8,8,34.84
270614,113547900,1403868948092.966,-0.3726,-1.1473,-9.9923,-0.1391,-0.3478,0.4869,6.1111,-1.7748,164.7062,0.64,334.99,51.039465,13.79306,142.22,2.44,1.32,2.05,4.01,3,8,8,34.84
270614,113547900,1403868948111.0088,-0.3334,-1.0982,-9.8746,-0.1391,-0.5565,0.2086,6.1928,-1.6874,164.579,0.64,334.99,51.039465,13.79306,142.22,2.44,1.32,2.05,4.01,3,8,8,34.84
270614,113547900,1403868948122.183,-0.2745,-1.1276,-9.8943,-0.1391,-0.4173,0.2086,6.2946,-1.7017,164.4314,0.64,334.99,51.039465,13.79306,142.22,2.44,1.32,2.05,4.01,3,8,8,34.84
270614,113547900,1403868948141.6372,-0.2647,-1.1178,-9.8943,-0.2086,-0.626,0.3478,6.5397,-1.7013,164.4297,0.64,334.99,51.039465,13.79306,142.22,2.44,1.32,2.05,4.01,3,8,8,34.84
270614,113547900,1403868948158.4548,-0.2843,-1.1767,-9.9139,-0.2086,-0.4869,0.2086,6.7381,-1.7012,164.523,0.64,334.99,51.039465,13.79306,142.22,2.44,1.32,2.05,4.01,3,8,8,34.84
270614,113548000,1403868948193.947,-0.3432,-1.0884,-9.9629,-0.1391,-0.4869,0.2086,6.5662,-1.836,164.593,0.65,335.07,51.039465,13.79306,142.22,2.44,1.32,2.05,4.01,3,8,8,34.84
270614,113548000,1403868948215.946,-0.2941,-1.0786,-9.9433,-0.0695,-0.5565,0.2782,6.5861,-1.7458,164.6963,0.65,335.07,51.039465,13.793059,142.22,2.44,1.32,2.05,4.02,3,8,8,34.84
270614,113548000,1403868948230.646,-0.3334,-1.1178,-9.9727,-0.0695,-0.3478,0.3478,6.6595,-1.8303,164.7471,0.65,335.07,51.039465,13.793059,142.22,2.44,1.32,2.05,4.02,3,8,8,34.85
270614,113548000,1403868948253.3792,-0.353,-1.2453,-9.8943,-0.3478,-0.4869,0.4173,6.651,-1.803,164.7829,0.65,335.07,51.039465,13.793059,142.22,2.44,1.32,2.05,4.02,3,8,8,34.85
270614,113548000,1403868948271.143,-0.3432,-1.1276,-9.8943,-0.1391,-0.6956,0.2782,6.5844,-1.6375,164.8202,0.65,335.07,51.039465,13.793059,142.22,2.44,1.32,2.05,4.02,3,8,8,34.85
270614,113548100,1403868948293.718,-0.3432,-1.0884,-9.8354,-0.1391,-0.5565,0.3478,6.5417,-1.7506,164.88,0.65,335.16,51.039465,13.793059,142.22,2.44,1.32,2.05,4.02,3,8,8,34.85
270614,113548100,1403868948318.024,-0.402,-1.1473,-9.9139,-0.1391,-0.4869,0.3478,6.5283,-1.7773,164.8576,0.65,335.16,51.039466,13.793059,142.22,2.44,1.32,2.05,4.02,3,8,8,34.85
270614,113548100,1403868948331.346,-0.3039,-1.1865,-9.9335,-0.2086,-0.4173,0.5565,6.5377,-1.6751,164.8407,0.65,335.16,51.039466,13.793059,142.22,2.44,1.32,2.05,4.02,3,8,8,34.85
270614,113548100,1403868948351.043,-0.3334,-1.1178,-9.9531,-0.0695,-0.5565,0.2782,6.5436,-1.6081,164.8306,0.65,335.16,51.039466,13.793059,142.22,2.44,1.32,2.05,4.02,3,8,8,34.85
270614,113548100,1403868948363.111,-0.2745,-1.1375,-9.8943,-0.2086,-0.5565,0.3478,6.3981,-1.6393,164.7862,0.65,335.16,51.039466,13.793059,142.22,2.44,1.32,2.05,4.02,3,8,8,34.85
270614,113548200,1403868948378.863,-0.2157,-1.1963,-9.8844,-0.1391,-0.626,0.4869,6.4618,-1.6836,164.7728,0.65,335.24,51.039466,13.793059,142.22,2.44,1.32,2.05,4.02,3,8,8,34.85
270614,113548200,1403868948411.618,-0.3726,-1.0982,-10.0021,-0.1391,-0.3478,0.3478,6.4389,-1.831,164.7379,0.65,335.24,51.039466,13.793059,142.22,2.44,1.33,2.05,4.02,3,8,8,34.85
270614,113548200,1403868948429.902,-0.2941,-1.1767,-9.9335,-0.2086,-0.4869,0.2782,6.5291,-1.672,164.6858,0.65,335.24,51.039466,13.793059,142.22,2.44,1.33,2.05,4.02,3,8,8,34.85
270614,113548200,1403868948451.01,-0.2353,-1.1276,-9.9335,-0.2086,-0.3478,0.3478,6.4836,-1.6752,164.6531,0.65,335.24,51.039466,13.793059,142.22,2.44,1.33,2.05,4.02,3,7,7,34.85
270614,113548200,1403868948470.156,-0.3432,-1.108,-9.8648,-0.2086,-0.4173,0.2086,6.5354,-1.8148,164.6207,0.65,335.24,51.039466,13.793059,142.22,2.44,1.33,2.05,4.02,3,7,7,34.85
270614,113548300,1403868948494.176,-0.3726,-1.108,-10.0021,-0.0695,-0.4173,0.3478,6.4193,-1.8498,164.5527,0.65,335.32,51.039466,13.793059,142.22,2.44,1.33,2.05,4.02,3,7,7,34.85
270614,113548300,1403868948517.981,-0.2647,-1.1669,-9.9139,-0.2086,-0.4173,0.4869,6.4269,-1.6813,164.4375,0.65,335.32,51.039466,13.793059,142.22,2.5,1.41,2.07,4.02,3,7,7,34.85
270614,113548300,1403868948537.701,-0.3137,-1.1669,-9.9825,-0.2782,-0.4173,0.3478,6.3048,-1.7185,164.3772,0.65,335.32,51.039466,13.793059,142.22,2.5,1.41,2.07,4.02,3,7,7,34.85
270614,113548300,1403868948550.958,-0.3137,-1.1963,-9.9237,-0.2086,-0.4869,0.4173,6.5724,-1.8206,164.3496,0.65,335.32,51.039466,13.793059,142.22,2.5,1.41,2.07,4.02,3,7,7,34.85
270614,113548300,1403868948569.784,-0.2843,-1.1473,-9.9629,-0.1391,-0.5565,0.4869,6.7786,-1.766,164.4475,0.65,335.32,51.039466,13.793059,142.22,2.5,1.41,2.07,4.02,3,7,7,34.85
270614,113548400,1403868948582.4001,-0.3235,-1.0786,-9.9629,-0.1391,-0.626,0.4173,6.7122,-1.6725,164.4954,0.65,335.41,51.039466,13.793059,142.22,2.5,1.41,2.07,4.02,3,7,7,34.85
270614,113548400,1403868948598.348,-0.3137,-1.1276,-9.8452,-0.1391,-0.4869,0.5565,6.618,-1.8448,164.5634,0.65,335.41,51.039466,13.793059,142.22,2.5,1.41,2.07,4.03,3,7,7,34.85
270614,113548400,1403868948618.405,-0.3039,-1.0786,-9.9629,0.0,-0.626,0.3478,6.632,-1.7386,164.627,0.65,335.41,51.039466,13.793059,142.22,2.5,1.41,2.07,4.03,3,7,7,34.85
270614,113548400,1403868948641.69,-0.2745,-1.1276,-9.8943,0.0,-0.4869,0.4173,6.5838,-1.709,164.6871,0.65,335.41,51.039466,13.793059,142.22,2.5,1.41,2.07,4.03,3,7,7,34.85
270614,113548400,1403868948658.046,-0.4314,-1.0786,-10.0021,-0.2086,-0.626,0.3478,6.6018,-1.7498,164.7364,0.65,335.41,51.039466,13.793059,142.22,2.5,1.41,2.07,4.03,3,7,7,34.85
270614,113548400,1403868948679.926,-0.2941,-1.0982,-9.8354,-0.0695,-0.626,0.4173,6.4896,-1.7196,164.7716,0.66,335.51,51.039466,13.793059,142.22,2.5,1.41,2.07,4.03,3,7,7,34.85
270614,113548500,1403868948701.8882,-0.3432,-1.1767,-9.9923,0.0,-0.4869,0.2782,6.4976,-1.7255,164.768,0.66,335.51,51.039466,13.793059,142.22,2.5,1.41,2.07,4.03,3,7,7,34.85
270614,113548500,1403868948717.707,-0.2451,-1.1865,-9.8354,-0.1391,-0.5565,0.4173,6.5503,-1.7465,164.7422,0.66,335.51,51.039466,13.793059,142.22,2.5,1.41,2.07,4.03,3,7,7,34.85
270614,113548500,1403868948738.386,-0.3334,-1.108,-9.8256,-0.2086,-0.626,0.2782,6.513,-1.7039,164.7087,0.66,335.51,51.039466,13.793059,142.22,2.5,1.41,2.07,4.03,3,7,7,34.85
270614,113548500,1403868948757.3208,-0.3432,-1.1375,-9.9041,-0.0695,-0.6956,0.3478,6.883,-1.7391,164.967,0.66,335.51,51.039466,13.793059,142.22,2.5,1.41,2.07,4.03,3,7,7,34.85
270614,113548500,1403868948780.076,-0.2353,-1.1375,-9.8354,-0.1391,-0.626,0.3478,6.9585,-1.6608,165.1586,0.66,335.6,51.039466,13.793059,142.22,2.5,1.41,2.07,4.03,3,7,7,34.85
270614,113548600,1403868948812.202,-0.2941,-1.0688,-9.8746,-0.1391,-0.3478,0.2086,6.7257,-1.8449,165.3195,0.66,335.6,51.039466,13.793059,142.22,2.5,1.41,2.07,4.03,3,7,7,34.85
270614,113548600,1403868948830.813,-0.2647,-1.059,-9.9629,-0.2086,-0.3478,0.4173,6.4869,-1.6822,165.359,0.66,335.6,51.039466,13.793059,142.22,2.5,1.41,2.07,4.03,3,7,7,34.85
270614,113548600,1403868948851.0571,-0.2941,-1.1276,-9.9825,-0.2086,-0.4869,0.4869,6.4908,-1.7773,165.3457,0.66,335.6,51.039466,13.793059,142.22,2.5,1.41,2.07,4.03,3,7,7,34.85
270614,113548600,1403868948862.184,-0.3726,-1.1178,-9.8844,-0.4173,-0.5565,0.4869,6.564,-1.7398,165.3475,0.66,335.6,51.039466,13.793059,142.22,2.5,1.41,2.07,4.03,3,7,7,34.85
270614,113548600,1403868948882.0579,-0.353,-1.1473,-9.9335,-0.2086,-0.4869,0.3478,6.3601,-1.6953,165.2875,0.66,335.7,51.039466,13.793059,142.22,2.5,1.41,2.07,4.03,3,7,7,34.85
270614,113548700,1403868948898.73,-0.3334,-1.1963,-9.8746,0.0,-0.4173,0.4173,6.3676,-1.5653,165.1185,0.66,335.7,51.039467,13.793059,142.22,2.5,1.41,2.07,4.03,3,7,7,34.85
270614,113548700,1403868948917.78,-0.4118,-1.1571,-9.8746,-0.0695,-0.4869,0.3478,6.357,-1.5102,164.9798,0.66,335.7,51.039467,13.793059,142.22,2.5,1.41,2.07,4.03,3,7,7,34.85
270614,113548700,1403868948938.503,-0.3432,-1.0884,-9.9237,-0.2086,-0.4869,0.1391,6.2633,-1.7039,164.8713,0.66,335.7,51.039467,13.793059,142.22,2.5,1.41,2.07,4.03,3,7,7,34.85
270614,113548700,1403868948960.66,-0.2647,-1.1276,-9.9041,-0.2086,-0.5565,0.4173,6.5986,-1.6328,164.9706,0.66,335.7,51.039467,13.793059,142.22,2.5,1.41,2.07,4.03,3,7,7,34.85
270614,113548700,1403868948977.77,-0.3137,-1.0982,-9.9139,-0.1391,-0.4173,0.3478,6.6776,-1.6516,165.0296,0.66,335.8,51.039467,13.793059,142.22,2.5,1.41,2.07,4.03,3,7,7,34.85
270614,113548800,1403868948999.5562,-0.2941,-1.1669,-9.8844,-0.1391,-0.5565,0.4173,6.6143,-1.7101,165.0737,0.66,335.8,51.039467,13.793059,142.22,2.5,1.41,2.07,4.04,3,7,7,34.85
270614,113548800,1403868949018.425,-0.353,-1.0982,-10.0021,-0.1391,-0.4869,0.4869,6.4301,-1.8024,165.049,0.66,335.8,51.039467,13.793059,142.22,2.5,1.41,2.07,4.04,3,7,7,34.85
270614,113548800,1403868949037.7988,-0.1863,-1.2159,-9.806,-0.0695,-0.4173,0.3478,6.4494,-1.5298,164.9679,0.66,335.8,51.039467,13.793059,142.22,2.5,1.41,2.07,4.04,3,7,7,34.85
270614,113548800,1403868949058.1929,-0.2647,-1.0492,-9.9433,-0.2086,-0.4173,0.2086,6.404,-1.6503,164.9181,0.66,335.8,51.039467,13.793059,142.22,2.5,1.41,2.07,4.04,3,7,7,34.85
270614,113548800,1403868949078.296,-0.2843,-1.108,-9.8354,-0.2086,-0.4173,0.4173,6.3834,-1.6344,164.8798,0.66,335.9,51.039467,13.793059,142.22,2.5,1.41,2.07,4.04,3,7,7,34.85
270614,113548900,1403868949098.561,-0.3235,-1.1178,-9.8746,-0.2086,-0.5565,0.4173,6.4251,-1.6613,164.8466,0.66,335.9,51.039467,13.793059,142.22,2.5,1.41,2.07,4.04,3,7,7,34.85
270614,113548900,1403868949117.77,-0.3235,-1.0786,-9.9629,-0.2782,-0.4173,0.3478,6.3966,-1.6619,164.8036,0.66,335.9,51.039467,13.793059,142.22,2.5,1.41,2.07,4.04,3,7,7,34.85
270614,113548900,1403868949138.233,-0.2647,-1.1963,-9.9531,-0.1391,-0.4869,0.4173,6.4068,-1.5975,164.7606,0.66,335.9,51.039467,13.793059,142.22,2.5,1.41,2.07,4.04,3,7,7,34.85
270614,113548900,1403868949157.288,-0.2745,-1.1375,-9.8648,-0.2782,-0.5565,0.2782,6.638,-1.6386,164.8082,0.66,335.9,51.039467,13.793059,142.22,2.5,1.41,2.07,4.04,3,7,7,34.85
270614,113548900,1403868949177.78,-0.2353,-1.0394,-9.8452,-0.2086,-0.626,0.1391,6.6198,-1.6627,164.8132,0.66,336.0,51.039467,13.793059,142.22,2.5,1.41,2.07,4.04,3,7,7,34.85
270614,113549000,1403868949210.6409,-0.3137,-1.108,-9.9139,-0.2086,-0.4173,0.2086,6.5665,-1.6731,164.8506,0.66,336.0,51.039467,13.793058,142.22,2.5,1.41,2.07,4.04,3,7,7,34.85
270614,113549000,1403868949230.367,-0.3235,-1.1178,-9.8746,-0.0695,-0.3478,0.2782,6.421,-1.8109,164.8578,0.66,336.0,51.039467,13.793058,142.22,2.5,1.41,2.07,4.04,3,7,7,34.85
270614,113549000,1403868949251.074,-0.3235,-1.1375,-9.8746,-0.1391,-0.5565,0.2782,6.3073,-1.6856,164.7826,0.66,336.0,51.039467,13.793058,142.22,2.5,1.41,2.07,4.04,3,7,7,34.85
270614,113549000,1403868949262.1218,-0.2941,-1.2257,-9.9531,-0.4173,-0.626,0.4173,6.4478,-1.7443,164.7109,0.66,336.0,51.039467,13.793058,142.22,2.5,1.41,2.07,4.04,3,7,7,34.85
270614,113549000,1403868949278.2542,-0.2941,-1.0982,-9.8844,-0.2086,-0.4173,0.2782,6.3418,-1.6742,164.6381,0.66,336.11,51.039467,13.793058,142.22,2.5,1.41,2.07,4.04,3,7,7,34.85
270614,113549100,1403868949298.815,-0.2549,-1.0884,-9.9041,-0.0695,-0.4869,0.4173,6.5317,-1.6934,164.7115,0.66,336.11,51.039467,13.793058,142.22,2.44,1.32,2.05,4.05,3,7,7,34.85
270614,113549100,1403868949327.949,-0.3039,-1.1178,-9.9335,-0.2782,-0.4173,0.3478,6.4955,-1.7067,164.737,0.66,336.11,51.039467,13.793058,142.22,2.44,1.32,2.05,4.05,3,7,7,34.85
270614,113549100,1403868949351.0498,-0.353,-1.1865,-9.9629,0.0,-0.4173,0.4869,6.6505,-1.8471,164.764,0.66,336.11,51.039467,13.793058,142.22,2.44,1.32,2.05,4.05,3,8,8,34.85
270614,113549100,1403868949361.733,-0.3432,-1.0786,-9.9237,-0.2086,-0.4869,0.2782,6.5476,-1.7712,164.7917,0.66,336.11,51.039467,13.793058,142.22,2.44,1.32,2.05,4.05,3,8,8,34.85
270614,113549100,1403868949378.0078,-0.2745,-1.1375,-9.7962,-0.2086,-0.5565,0.4869,6.6365,-1.826,164.8742,0.67,336.22,51.039467,13.793058,142.22,2.44,1.32,2.05,4.05,3,8,8,34.85
270614,113549200,1403868949399.574,-0.2647,-1.1375,-9.9041,-0.0695,-0.4869,0.4173,6.7034,-1.8085,164.9293,0.67,336.22,51.039467,13.793058,142.22,2.44,1.33,2.05,4.05,3,8,8,34.85
270614,113549200,1403868949418.3792,-0.2353,-1.1571,-10.1884,-0.0695,-0.5565,0.2782,6.6362,-1.5991,164.9369,0.67,336.22,51.039467,13.793058,142.22,2.44,1.33,2.05,4.05,3,8,8,34.85
270614,113549200,1403868949437.799,-0.3137,-1.1178,-9.8943,-0.2782,-0.4869,0.3478,6.536,-1.7132,164.9391,0.67,336.22,51.039467,13.793058,142.22,2.44,1.33,2.05,4.05,3,8,8,34.85
270614,113549200,1403868949470.84,-0.2941,-1.1178,-9.8746,-0.1391,-0.5565,0.2782,6.5497,-1.8194,164.9469,0.67,336.22,51.039467,13.793058,142.22,2.44,1.33,2.05,4.05,3,8,8,34.85
270614,113549200,1403868949485.3262,-0.2745,-1.1178,-9.8256,-0.0695,-0.4869,0.2782,6.5378,-1.7972,164.9564,0.67,336.33,51.039467,13.793058,142.22,2.44,1.33,2.05,4.05,3,8,8,34.85
270614,113549300,1403868949500.4731,-0.4412,-1.1865,-9.9139,-0.2782,-0.4173,0.4173,6.5489,-1.8289,164.9138,0.67,336.33,51.039467,13.793058,142.22,2.44,1.33,2.05,4.05,3,8,8,34.85
270614,113549300,1403868949517.75,-0.353,-1.1571,-9.9139,-0.0695,-0.5565,0.3478,6.4924,-1.7252,164.8909,0.67,336.33,51.039468,13.793058,142.22,2.44,1.32,2.05,4.05,3,8,8,34.85
270614,113549300,1403868949538.379,-0.2941,-1.1865,-9.8746,0.0,-0.4869,0.2782,6.5086,-1.6575,164.8781,0.67,336.33,51.039468,13.793058,142.22,2.44,1.32,2.05,4.05,3,8,8,34.85
270614,113549300,1403868949558.816,-0.2059,-1.108,-9.8354,0.0,-0.4869,0.2782,6.483,-1.7,164.8328,0.67,336.33,51.039468,13.793058,142.22,2.44,1.32,2.05,4.05,3,8,8,34.85
270614,113549300,1403868949577.7012,-0.2745,-1.0982,-9.9727,-0.1391,-0.5565,0.2782,6.3611,-1.5037,164.7668,0.67,336.46,51.039468,13.793058,142.22,2.44,1.32,2.05,4.05,3,8,8,34.85
270614,113549400,1403868949610.148,-0.353,-1.1963,-9.8844,0.0,-0.5565,0.4173,6.429,-1.7239,164.6749,0.67,336.46,51.039468,13.793058,142.22,2.44,1.32,2.05,4.05,3,8,8,34.85
270614,113549400,1403868949621.5159,-0.2353,-1.1276,-9.8452,-0.2086,-0.4869,0.5565,6.3909,-1.6922,164.5845,0.67,336.46,51.039468,13.793058,142.22,2.44,1.32,2.05,4.05,3,8,8,34.85
270614,113549400,1403868949650.527,-0.3726,-1.108,-9.8943,-0.1391,-0.4869,0.4173,6.5983,-1.697,164.6182,0.67,336.46,51.039468,13.793058,142.22,2.44,1.32,2.05,4.05,3,8,8,34.85
270614,113549400,1403868949661.545,-0.3039,-1.1473,-9.8844,-0.0695,-0.5565,0.3478,6.5093,-1.743,164.5979,0.67,336.46,51.039468,13.793058,142.22,2.44,1.32,2.05,4.05,3,8,8,34.85
270614,113549400,1403868949678.247,-0.3334,-1.1865,-9.9041,-0.2086,-0.4869,0.4173,6.5986,-1.8061,164.5891,0.67,336.5899,51.039468,13.793058,142.22,2.44,1.32,2.05,4.05,3,8,8,34.85
270614,113549500,1403868949699.624,-0.2745,-1.0884,-9.9139,-0.0695,-0.4869,0.4173,6.7526,-1.7104,164.7317,0.67,336.5899,51.039468,13.793058,142.22,2.44,1.32,2.05,4.05,3,8,8,34.85
270614,113549500,1403868949717.761,-0.2451,-1.0492,-9.855,-0.1391,-0.4869,0.2782,6.7936,-1.7015,164.8945,0.67,336.5899,51.039468,13.793058,142.22,2.44,1.32,2.05,4.06,3,8,8,34.85
270614,113549500,1403868949738.3772,-0.3726,-1.1571,-9.9041,-0.0695,-0.626,0.4173,6.7701,-1.8629,165.0237,0.67,336.5899,51.039468,13.793058,142.22,2.44,1.32,2.05,4.06,3,8,8,34.85
270614,113549500,1403868949758.452,-0.2059,-1.1473,-9.8844,-0.1391,-0.3478,0.3478,6.4077,-1.5997,164.9942,0.67,336.5899,51.039468,13.793058,142.22,2.44,1.32,2.05,4.06,3,8,8,34.85
270614,113549500,1403868949780.9292,-0.2941,-1.1276,-9.9237,-0.1391,-0.4869,0.3478,6.275,-1.6432,164.8396,0.67,336.73,51.039468,13.793058,142.22,2.44,1.32,2.05,4.06,3,8,8,34.85
270614,113549600,1403868949811.121,-0.2549,-1.0786,-9.9237,-0.2086,-0.3478,0.3478,6.3237,-1.5988,164.6949,0.67,336.73,51.039468,13.793058,142.22,2.44,1.32,2.05,4.06,3,8,8,34.85
270614,113549600,1403868949828.78,-0.3628,-1.108,-9.8746,-0.2086,-0.4173,0.2782,6.1804,-1.7103,164.5681,0.67,336.73,51.039468,13.793058,142.22,2.5,1.41,2.07,4.06,3,8,8,34.85
270614,113549600,1403868949851.058,-0.3628,-1.1767,-9.8844,-0.1391,-0.4173,0.4173,6.468,-1.8424,164.5946,0.67,336.73,51.039468,13.793058,142.22,2.5,1.41,2.07,4.06,3,7,7,34.85
270614,113549600,1403868949874.186,-0.3334,-1.108,-9.8746,-0.2782,-0.4173,0.4869,6.5792,-1.6303,164.5832,0.67,336.73,51.039468,13.793058,142.22,2.5,1.41,2.07,4.06,3,7,7,34.85
270614,113549600,1403868949887.377,-0.2745,-1.0884,-9.855,-0.0695,-0.5565,0.2782,6.4977,-1.7502,164.5481,0.67,336.87,51.039468,13.793058,142.22,2.5,1.41,2.07,4.06,3,7,7,34.85
270614,113549700,1403868949902.801,-0.2451,-1.1669,-10.0413,-0.2086,-0.5565,0.3478,6.7482,-1.7444,164.659,0.67,336.87,51.039468,13.793058,142.22,2.5,1.41,2.07,4.06,3,7,7,34.85
270614,113549700,1403868949921.63,-0.3039,-1.1571,-9.8844,-0.4173,-0.626,0.5565,6.8292,-1.755,164.7855,0.67,336.87,51.039468,13.793058,142.22,2.44,1.32,2.05,4.06,3,7,7,34.85
270614,113549700,1403868949938.834,-0.2647,-1.1375,-9.9433,-0.2086,-0.4869,0.4173,6.7145,-1.7678,164.9146,0.67,336.87,51.039468,13.793058,142.22,2.44,1.32,2.05,4.06,3,8,8,34.85
270614,113549700,1403868949958.427,-0.3922,-1.1178,-9.8844,-0.3478,-0.3478,0.4173,6.6016,-1.7225,164.9881,0.67,336.87,51.039468,13.793058,142.22,2.44,1.32,2.05,4.06,3,8,8,34.85
270614,113549700,1403868949978.053,-0.2843,-1.1669,-9.8746,-0.2782,-0.2782,0.3478,6.5328,-1.6721,164.9232,0.67,337.02,51.039468,13.793058,142.22,2.44,1.32,2.05,4.06,3,8,8,34.85
270614,113549800,1403868949998.11,-0.3432,-1.108,-9.8844,0.0,-0.4173,0.3478,6.4455,-1.7194,164.9057,0.67,337.02,51.039468,13.793058,142.22,2.44,1.32,2.05,4.06,3,8,8,34.85
270614,113549800,1403868950018.516,-0.2745,-1.108,-9.9433,0.0,-0.5565,0.2782,6.4835,-1.6673,164.8961,0.67,337.02,51.039468,13.793058,142.22,2.44,1.33,2.05,4.06,3,8,8,34.85
270614,113549800,1403868950038.358,-0.3039,-1.2061,-9.8844,-0.1391,-0.4173,0.3478,6.6044,-1.6637,164.8882,0.67,337.02,51.039468,13.793058,142.22,2.44,1.33,2.05,4.06,3,8,8,34.85
270614,113549800,1403868950058.055,-0.2059,-1.0884,-9.7864,-0.2086,-0.4869,0.2782,6.5656,-1.6036,164.8641,0.67,337.02,51.039468,13.793058,142.22,2.44,1.33,2.05,4.06,3,8,8,34.85
270614,113549800,1403868950088.647,-0.2941,-1.1178,-9.9237,-0.2782,-0.3478,0.2086,6.5705,-1.6414,164.8836,0.67,337.17,51.039468,13.793058,142.22,2.44,1.33,2.05,4.06,3,8,8,34.85
270614,113549900,1403868950102.897,-0.2941,-1.108,-9.9531,0.2086,-0.5565,0.4173,6.4687,-1.6479,164.8932,0.67,337.17,51.039468,13.793058,142.22,2.44,1.33,2.05,4.06,3,8,8,34.85
270614,113549900,1403868950117.829,-0.2843,-1.1473,-9.9237,-0.2086,-0.4869,0.2782,6.6036,-1.7181,164.943,0.67,337.17,51.039469,13.793058,142.22,2.5,1.41,2.07,4.06,3,8,8,34.85
270614,113549900,1403868950138.9329,-0.2843,-1.1276,-9.8844,-0.2086,-0.3478,0.4173,6.6549,-1.63,164.9361,0.67,337.17,51.039469,13.793058,142.22,2.5,1.41,2.07,4.06,3,7,7,34.85
270614,113549900,1403868950157.544,-0.3039,-1.1473,-9.9433,-0.2086,-0.2782,0.3478,6.5763,-1.6974,164.9667,0.67,337.17,51.039469,13.793058,142.22,2.5,1.41,2.07,4.06,3,7,7,34.85
270614,113549900,1403868950179.539,-0.2353,-1.1375,-9.9041,0.0,-0.4869,0.3478,6.5345,-1.5984,164.925,0.67,337.32,51.039469,13.793058,142.22,2.5,1.41,2.07,4.06,3,7,7,34.85
270614,113550000,1403868950198.063,-0.3334,-1.1473,-9.855,-0.3478,-0.5565,0.2782,6.5255,-1.7612,164.8812,0.67,337.32,51.039469,13.793058,142.22,2.5,1.41,2.07,4.06,3,7,7,34.85
270614,113550000,1403868950218.527,-0.3039,-1.1473,-9.8452,-0.0695,-0.5565,0.4173,6.4541,-1.7475,164.8653,0.67,337.32,51.039469,13.793058,142.22,2.51,1.41,2.07,4.07,3,7,7,34.91
270614,113550000,1403868950253.433,-0.2745,-1.1963,-9.8844,-0.2782,-0.3478,0.5565,6.5639,-1.6892,164.8296,0.67,337.32,51.039469,13.793058,142.22,2.51,1.41,2.07,4.07,3,7,7,34.91
270614,113550000,1403868950274.409,-0.2843,-1.1178,-10.0315,-0.1391,-0.3478,0.4869,6.499,-1.6354,164.8098,0.67,337.32,51.039469,13.793058,142.22,2.51,1.41,2.07,4.07,3,7,7,34.91
270614,113550000,1403868950294.2559,-0.2647,-1.1276,-10.0315,-0.0695,-0.4173,0.4173,6.5393,-1.6355,164.8145,0.67,337.48,51.039469,13.793058,142.22,2.51,1.41,2.07,4.07,3,7,7,34.91
270614,113550100,1403868950309.248,-0.2745,-1.1178,-9.9139,-0.1391,-0.4869,0.2782,6.4213,-1.5967,164.7666,0.67,337.48,51.039469,13.793058,142.22,2.51,1.41,2.07,4.07,3,7,7,34.91
270614,113550100,1403868950323.638,-0.3824,-1.1571,-9.9629,-0.3478,-0.626,0.4869,6.4978,-1.6095,164.703,0.67,337.48,51.039469,13.793058,142.22,2.5,1.41,2.07,4.07,3,7,7,34.91
270614,113550100,1403868950342.0999,-0.2647,-1.0884,-9.8746,-0.1391,-0.5565,0.3478,6.3966,-1.5778,164.6627,0.67,337.48,51.039469,13.793058,142.22,2.5,1.41,2.07,4.07,3,7,7,34.91
270614,113550100,1403868950357.296,-0.3137,-1.108,-9.9237,-0.2782,-0.4173,0.2086,6.384,-1.7572,164.62,0.67,337.48,51.039469,13.793058,142.22,2.5,1.41,2.07,4.07,3,7,7,34.91
270614,113550100,1403868950381.906,-0.3922,-1.1178,-9.9041,-0.1391,-0.5565,0.3478,6.5629,-1.88,164.7376,0.67,337.64,51.039469,13.793058,142.22,2.5,1.41,2.07,4.07,3,7,7,34.91
270614,113550200,1403868950398.139,-0.3726,-1.1669,-9.9433,-0.1391,-0.4173,0.2782,6.6182,-1.7058,164.8094,0.67,337.64,51.039469,13.793058,142.22,2.5,1.41,2.07,4.07,3,7,7,34.91
270614,113550200,1403868950418.487,-0.2451,-1.0492,-9.8844,-0.2086,-0.4869,0.3478,6.596,-1.6078,164.86,0.67,337.64,51.039469,13.793058,142.22,2.5,1.41,2.07,4.07,3,7,7,34.91
270614,113550200,1403868950453.629,-0.2843,-1.059,-9.8648,-0.1391,-0.4173,0.1391,6.3284,-1.6215,164.7957,0.67,337.64,51.039469,13.793058,142.22,2.5,1.41,2.07,4.07,3,7,7,34.91
270614,113550200,1403868950475.2031,-0.2647,-1.0786,-9.9531,-0.0695,-0.5565,0.4173,6.3171,-1.587,164.6887,0.67,337.64,51.039469,13.793058,142.22,2.5,1.41,2.07,4.07,3,7,7,34.91
270614,113550200,1403868950501.88,-0.3137,-1.0982,-9.9825,-0.2086,-0.3478,0.3478,6.3169,-1.7529,164.6021,0.67,337.79,51.039469,13.793058,142.22,2.5,1.41,2.07,4.07,3,7,7,34.91
270614,113550300,1403868950514.386,-0.2647,-1.2257,-9.8354,-0.2086,-0.626,0.3478,6.5724,-1.7183,164.555,0.67,337.79,51.039469,13.793058,142.22,2.5,1.41,2.07,4.07,3,7,7,34.91
270614,113550300,1403868950533.235,-0.3137,-1.0884,-9.8943,-0.1391,-0.626,0.2782,6.6782,-1.8658,164.6461,0.67,337.79,51.039469,13.793057,142.22,2.5,1.41,2.07,4.07,3,7,7,34.91
270614,113550300,1403868950552.771,-0.353,-1.0492,-9.9237,-0.2086,-0.5565,0.2782,6.562,-1.7029,164.7173,0.67,337.79,51.039469,13.793057,142.22,2.5,1.41,2.07,4.07,3,7,7,34.91
270614,113550300,1403868950572.336,-0.2745,-0.9904,-9.8256,-0.1391,-0.4869,0.3478,6.6212,-1.8323,164.79,0.67,337.79,51.039469,13.793057,142.22,2.5,1.41,2.07,4.07,3,7,7,34.91
270614,113550300,1403868950584.52,-0.2353,-1.1473,-9.9629,0.0,-0.5565,0.4869,6.7634,-1.805,164.9787,0.67,337.96,51.039469,13.793057,142.22,2.5,1.41,2.07,4.07,3,7,7,34.91
270614,113550400,1403868950602.659,-0.353,-1.1865,-9.8746,-0.0695,-0.4173,0.4173,6.9374,-1.7603,165.1067,0.67,337.96,51.039469,13.793057,142.22,2.5,1.41,2.07,4.07,3,7,7,34.91
270614,113550400,1403868950618.5032,-0.2745,-1.1375,-9.9531,-0.0695,-0.626,0.2782,6.7933,-1.7718,165.2439,0.67,337.96,51.039469,13.793057,142.22,2.44,1.33,2.05,4.08,3,7,7,34.91
270614,113550400,1403868950638.8718,-0.353,-1.1571,-9.9237,-0.2782,-0.5565,0.4869,6.9192,-1.7015,165.461,0.67,337.96,51.039469,13.793057,142.22,2.44,1.33,2.05,4.08,3,8,8,34.91
270614,113550400,1403868950658.224,-0.2647,-1.1178,-9.8943,-0.0695,-0.5565,0.3478,6.9016,-1.8384,165.6593,0.67,337.96,51.039469,13.793057,142.22,2.44,1.33,2.05,4.08,3,8,8,34.91
270614,113550400,1403868950690.784,-0.2843,-1.1571,-9.8844,-0.2086,-0.5565,0.4173,6.9353,-1.681,165.8332,0.67,338.12,51.039469,13.793057,142.22,2.44,1.33,2.05,4.08,3,8,8,34.91
270614,113550500,1403868950702.8,-0.2843,-1.1178,-9.8158,0.0,-0.5565,0.2086,6.8307,-1.6357,166.0001,0.67,338.12,51.039469,13.793057,142.22,2.44,1.33,2.05,4.08,3,8,8,34.91
270614,113550500,1403868950720.723,-0.3039,-1.0884,-10.0315,-0.1391,-0.3478,0.2782,6.4969,-1.6545,165.9175,0.67,338.12,51.03947,13.793057,142.22,2.44,1.33,2.05,4.08,3,8,8,34.91
270614,113550500,1403868950750.617,-0.3334,-1.108,-9.9237,-0.1391,-0.3478,0.2086,6.4232,-1.6057,165.9016,0.67,338.12,51.03947,13.793057,142.22,2.44,1.33,2.05,4.08,3,8,8,34.91
270614,113550500,1403868950761.943,-0.3235,-1.0688,-9.9237,-0.0695,-0.5565,0.3478,6.4917,-1.6828,165.8703,0.67,338.12,51.03947,13.793057,142.22,2.44,1.33,2.05,4.08,3,8,8,34.91
270614,113550500,1403868950791.311,-0.353,-1.1571,-9.9923,-0.0695,-0.4173,0.3478,6.3043,-1.5794,165.764,0.67,338.2799,51.03947,13.793057,142.22,2.44,1.33,2.05,4.08,3,8,8,34.91
270614,113550600,1403868950805.1792,-0.2941,-1.1473,-9.9139,0.0,-0.4869,0.2782,6.2665,-1.6559,165.6534,0.67,338.2799,51.03947,13.793057,142.22,2.44,1.33,2.05,4.08,3,8,8,34.91
270614,113550600,1403868950821.1118,-0.2745,-1.1178,-9.9727,-0.2086,-0.4869,0.4173,6.3267,-1.5684,165.5253,0.67,338.2799,51.03947,13.793057,142.22,2.51,1.41,2.07,4.08,3,8,8,34.91
270614,113550600,1403868950849.716,-0.2745,-1.1276,-9.8844,0.0695,-0.2782,0.3478,6.4837,-1.6425,165.5442,0.67,338.2799,51.03947,13.793057,142.22,2.51,1.41,2.07,4.08,3,7,7,34.91
270614,113550600,1403868950858.4211,-0.2941,-1.1963,-9.8746,-0.2782,-0.626,0.2782,6.6495,-1.8458,165.6,0.67,338.2799,51.03947,13.793057,142.22,2.51,1.41,2.07,4.08,3,7,7,34.91
270614,113550600,1403868950879.6821,-0.1961,-1.1473,-9.8746,-0.2782,-0.4869,0.3478,6.5911,-1.7765,165.6436,0.67,338.2799,51.03947,13.793057,142.22,2.51,1.41,2.07,4.08,3,7,7,34.91
270614,113550700,1403868950897.977,-0.2843,-1.0982,-9.9139,-0.1391,-0.5565,0.4869,6.5604,-1.8241,165.6845,0.67,338.45,51.03947,13.793057,142.22,2.51,1.41,2.07,4.08,3,7,7,34.91
270614,113550700,1403868950917.9448,-0.2549,-1.1767,-9.9727,-0.1391,-0.4173,0.4869,6.3929,-1.7641,165.5675,0.67,338.45,51.03947,13.793057,142.22,2.44,1.33,2.05,4.08,3,7,7,34.91
270614,113550700,1403868950939.6008,-0.2647,-1.0786,-9.9139,-0.4173,-0.4869,0.4869,6.315,-1.5736,165.4901,0.67,338.45,51.03947,13.793057,142.22,2.44,1.33,2.05,4.08,3,8,8,34.91
270614,113550700,1403868950957.498,-0.2941,-1.1963,-9.8746,-0.2086,-0.4173,0.4173,6.4745,-1.6359,165.4327,0.67,338.45,51.03947,13.793057,142.22,2.44,1.33,2.05,4.08,3,8,8,34.91
270614,113550700,1403868950977.7888,-0.2843,-1.1375,-9.8746,-0.1391,-0.4869,0.2086,6.57,-1.8149,165.4574,0.67,338.45,51.03947,13.793057,142.22,2.44,1.33,2.05,4.08,3,8,8,34.91
270614,113550800,1403868951001.7048,-0.2549,-1.1375,-9.9825,-0.1391,-0.5565,0.2086,6.6333,-1.6727,165.5446,0.68,338.62,51.03947,13.793057,142.22,2.44,1.33,2.05,4.08,3,8,8,34.91
270614,113550800,1403868951018.851,-0.3039,-1.108,-9.8844,-0.2782,-0.4173,0.4173,6.5329,-1.7105,165.5937,0.68,338.62,51.03947,13.793057,142.22,2.44,1.32,2.05,4.08,3,8,8,34.91
270614,113550800,1403868951040.005,-0.3432,-1.1963,-9.9237,-0.2086,-0.6956,0.2086,6.6051,-1.7538,165.6386,0.68,338.62,51.03947,13.793057,142.22,2.44,1.32,2.05,4.08,3,8,8,34.91
270614,113550800,1403868951058.243,-0.3432,-1.1669,-9.8256,-0.2086,-0.4869,0.3478,6.5453,-1.6745,165.6345,0.68,338.62,51.03947,13.793057,142.22,2.44,1.32,2.05,4.08,3,8,8,34.91
270614,113550800,1403868951078.391,-0.3137,-1.108,-9.9433,-0.2086,-0.5565,0.2782,6.572,-1.6755,165.6497,0.68,338.62,51.03947,13.793057,142.22,2.44,1.32,2.05,4.08,3,8,8,34.91
270614,113550900,1403868951101.774,-0.2353,-1.0884,-9.9433,-0.2782,-0.5565,0.2086,6.4786,-1.7638,165.6508,0.68,338.79,51.03947,13.793057,142.22,2.44,1.32,2.05,4.08,3,8,8,34.91
270614,113550900,1403868951121.743,-0.3235,-1.1178,-9.9041,-0.0695,-0.4869,0.2782,6.7369,-1.7664,165.7932,0.68,338.79,51.03947,13.793057,142.22,2.44,1.33,2.05,4.09,3,8,8,34.91
270614,113550900,1403868951150.326,-0.353,-1.1865,-9.806,-0.0695,-0.6956,0.2086,6.6282,-1.7015,165.8872,0.68,338.79,51.03947,13.793057,142.22,2.44,1.33,2.05,4.09,3,8,8,34.91
270614,113550900,1403868951166.139,-0.2451,-1.1375,-9.9335,-0.0695,-0.5565,0.4173,6.6266,-1.5999,165.974,0.68,338.79,51.03947,13.793057,142.22,2.44,1.33,2.05,4.09,3,8,8,34.91
270614,113550900,1403868951177.971,-0.2157,-1.1571,-9.8844,-0.1391,-0.4869,0.2782,6.4111,-1.5132,165.9575,0.68,338.79,51.03947,13.793057,142.22,2.44,1.33,2.05,4.09,3,8,8,34.91
270614,113551000,1403868951205.554,-0.3334,-1.2355,-9.9335,-0.1391,-0.626,0.4173,6.3811,-1.7217,165.8373,0.68,338.96,51.03947,13.793057,142.22,2.44,1.33,2.05,4.09,3,8,8,34.91
270614,113551000,1403868951217.9102,-0.3039,-1.108,-9.9237,-0.0695,-0.4173,0.4173,6.2959,-1.6562,165.734,0.68,338.96,51.039471,13.793057,142.22,2.45,1.33,2.05,4.09,3,8,8,34.91
270614,113551000,1403868951250.258,-0.2451,-1.1865,-9.9041,-0.1391,-0.7652,0.3478,6.3518,-1.7424,165.6638,0.68,338.96,51.039471,13.793057,142.22,2.45,1.33,2.05,4.09,3,8,8,34.91
270614,113551000,1403868951261.672,-0.2941,-1.108,-9.9041,-0.0695,-0.626,0.4173,6.1316,-1.4772,165.3904,0.68,338.96,51.039471,13.793057,142.22,2.45,1.33,2.05,4.09,3,8,8,34.91
270614,113551000,1403868951278.5298,-0.2745,-1.1571,-9.8844,-0.1391,-0.626,0.4173,6.2344,-1.5892,165.1878,0.68,338.96,51.039471,13.793057,142.22,2.45,1.33,2.05,4.09,3,8,8,34.91
270614,113551100,1403868951306.725,-0.3334,-1.1178,-9.806,-0.3478,-0.4173,0.4173,6.2445,-1.6788,164.9889,0.68,339.13,51.039471,13.793057,142.22,2.45,1.33,2.05,4.09,3,8,8,34.91
270614,113551100,1403868951329.733,-0.3922,-1.1669,-9.9237,0.0,-0.4173,0.4173,6.758,-1.7382,165.1128,0.68,339.13,51.039471,13.793057,142.22,2.44,1.32,2.05,4.09,3,8,8,34.91
270614,113551100,1403868951341.114,-0.3432,-1.1375,-9.8256,-0.2086,-0.5565,0.3478,6.802,-1.8175,165.3017,0.68,339.13,51.039471,13.793057,142.22,2.44,1.32,2.05,4.09,3,8,8,34.91
270614,113551100,1403868951357.7412,-0.2745,-1.1178,-9.8256,-0.1391,-0.5565,0.2782,6.6817,-1.8237,165.4554,0.68,339.13,51.039471,13.793057,142.22,2.44,1.32,2.05,4.09,3,8,8,34.91
270614,113551100,1403868951377.9731,-0.3137,-1.108,-9.8746,-0.1391,-0.4869,0.3478,6.7312,-1.7315,165.6176,0.68,339.13,51.039471,13.793057,142.22,2.44,1.32,2.05,4.09,3,8,8,34.91
270614,113551200,1403868951399.05,-0.2843,-1.0786,-9.9531,0.0695,-0.4869,0.2782,6.7566,-1.6274,165.7426,0.6899,339.3,51.039471,13.793057,142.22,2.44,1.32,2.05,4.09,3,8,8,34.91
270614,113551200,1403868951417.977,-0.3726,-1.0394,-9.8844,-0.1391,-0.4173,0.2782,6.7089,-1.7889,165.8735,0.6899,339.3,51.039471,13.793057,142.22,2.44,1.32,2.05,4.1,3,8,8,34.91
270614,113551200,1403868951450.222,-0.2255,-1.2257,-9.9335,-0.1391,-0.5565,0.3478,6.7589,-1.6558,165.9666,0.6899,339.3,51.039471,13.793057,142.22,2.44,1.32,2.05,4.1,3,8,8,34.91
270614,113551200,1403868951461.653,-0.2941,-1.059,-9.8648,-0.1391,-0.4173,0.3478,6.4795,-1.6432,165.919,0.6899,339.3,51.039471,13.793057,142.22,2.44,1.32,2.05,4.1,3,8,8,34.91
270614,113551200,1403868951478.7058,-0.3039,-1.1375,-9.9335,-0.3478,-0.626,0.3478,6.4591,-1.7435,165.883,0.6899,339.3,51.039471,13.793057,142.22,2.44,1.32,2.05,4.1,3,8,8,34.91
270614,113551300,1403868951498.809,-0.2255,-1.1571,-9.9237,-0.1391,-0.4173,0.2782,6.4207,-1.7128,165.8334,0.6899,339.46,51.039471,13.793057,142.22,2.44,1.32,2.05,4.1,3,8,8,34.91
270614,113551300,1403868951518.525,-0.3039,-1.059,-9.9237,-0.2782,-0.626,0.4173,6.1294,-1.6626,165.6498,0.6899,339.46,51.039471,13.793057,142.22,2.44,1.33,2.05,4.1,3,8,8,34.91
270614,113551300,1403868951540.417,-0.2451,-1.1375,-9.9237,-0.1391,-0.5565,0.3478,6.138,-1.4546,165.437,0.6899,339.46,51.039471,13.793057,142.22,2.44,1.33,2.05,4.1,3,8,8,34.91
270614,113551300,1403868951557.668,-0.2843,-1.0688,-9.8746,-0.1391,-0.4869,0.4173,6.1289,-1.6107,165.2375,0.6899,339.46,51.039471,13.793057,142.22,2.44,1.33,2.05,4.1,3,8,8,34.91
270614,113551300,1403868951578.0872,-0.2941,-1.1178,-9.8844,-0.2086,-0.626,0.4173,6.2446,-1.7047,165.0586,0.6899,339.46,51.039471,13.793057,142.22,2.44,1.33,2.05,4.1,3,8,8,34.91
270614,113551400,1403868951599.566,-0.2353,-1.1963,-9.8354,-0.1391,-0.626,0.3478,6.3224,-1.5805,164.9236,0.6899,339.63,51.039471,13.793057,142.22,2.44,1.33,2.05,4.1,3,8,8,34.91
270614,113551400,1403868951617.675,-0.2647,-1.0982,-9.855,-0.0695,-0.3478,0.4173,6.3737,-1.6348,164.8198,0.6899,339.63,51.039471,13.793057,142.22,2.5,1.41,2.07,4.1,3,8,8,34.91
270614,113551400,1403868951641.749,-0.2941,-1.0884,-9.8844,-0.1391,-0.4869,0.4173,6.2305,-1.7374,164.7311,0.6899,339.63,51.039471,13.793057,142.22,2.5,1.41,2.07,4.1,3,7,7,34.91
270614,113551400,1403868951658.3801,-0.3726,-1.1669,-9.9139,-0.1391,-0.3478,0.2782,6.4619,-1.7572,164.7001,0.6899,339.63,51.039471,13.793057,142.22,2.5,1.41,2.07,4.1,3,7,7,34.91
270614,113551400,1403868951678.544,-0.4216,-1.0688,-9.9433,-0.2086,-0.4173,0.3478,6.4057,-1.7845,164.6665,0.6899,339.63,51.039471,13.793057,142.22,2.5,1.41,2.07,4.1,3,7,7,34.91
270614,113551600,1403868951698.844,-0.2941,-1.0688,-9.9629,-0.1391,-0.4869,0.2782,6.4406,-1.7705,164.6454,0.7,339.79,51.039471,13.793057,142.22,2.5,1.41,2.07,4.1,3,7,7,34.91
270614,113551600,1403868951718.359,-0.2549,-1.1473,-9.9923,-0.0695,-0.4869,0.3478,6.776,-1.7133,164.7154,0.7,339.79,51.039471,13.793057,142.22,2.44,1.33,2.05,4.11,3,7,7,34.91
270614,113551600,1403868951740.5142,-0.2157,-1.2257,-9.9727,-0.1391,-0.4869,0.1391,6.7498,-1.7004,164.8497,0.7,339.79,51.039471,13.793057,142.22,2.44,1.33,2.05,4.11,3,8,8,34.91
270614,113551600,1403868951757.732,-0.3039,-1.108,-9.9041,-0.0695,-0.4173,0.2782,6.7702,-1.7928,164.9753,0.7,339.79,51.039471,13.793057,142.22,2.44,1.33,2.05,4.11,3,8,8,34.91
270614,113551600,1403868951778.087,-0.2941,-1.0688,-9.9433,0.0,-0.5565,0.4173,6.6256,-1.7317,165.0788,0.7,339.79,51.039471,13.793057,142.22,2.44,1.33,2.05,4.11,3,8,8,34.91
270614,113551600,1403868951799.699,-0.2941,-1.0982,-9.8746,-0.2086,-0.4173,0.2782,6.4374,-1.7567,165.0006,0.7,339.95,51.039471,13.793057,142.22,2.44,1.33,2.05,4.11,3,8,8,34.91
270614,113551700,1403868951820.739,-0.2647,-1.1178,-10.0315,0.0,-0.5565,0.2782,6.4754,-1.7039,164.9608,0.7,339.95,51.039472,13.793057,142.22,2.5,1.41,2.07,4.11,3,8,8,34.91
270614,113551700,1403868951850.23,-0.2647,-1.1473,-9.8844,-0.0695,-0.4869,0.2086,6.3874,-1.7866,164.8916,0.7,339.95,51.039472,13.793057,142.22,2.5,1.41,2.07,4.11,3,7,7,34.91
270614,113551700,1403868951871.647,-0.3334,-1.1473,-9.8746,-0.2782,-0.4173,0.4869,6.5213,-1.6641,164.8471,0.7,339.95,51.039472,13.793057,142.22,2.5,1.41,2.07,4.11,3,7,7,34.91
270614,113551700,1403868951887.437,-0.3039,-1.1375,-9.9923,-0.2086,-0.4869,0.4173,6.4754,-1.6617,164.8078,0.7,339.95,51.039472,13.793057,142.22,2.5,1.41,2.07,4.11,3,7,7,34.91
270614,113551700,1403868951908.57,-0.2647,-1.0982,-9.9237,-0.2782,-0.4173,0.3478,6.4908,-1.5883,164.7876,0.7,340.11,51.039472,13.793057,142.22,2.5,1.41,2.07,4.11,3,7,7,34.91
270614,113551800,1403868951920.733,-0.2451,-1.108,-9.9041,-0.1391,-0.4869,0.4869,6.4203,-1.6505,164.7507,0.7,340.11,51.039472,13.793057,142.22,2.44,1.33,2.05,4.11,3,7,7,34.91
270614,113551800,1403868951950.281,-0.3137,-1.1178,-9.8746,-0.0695,-0.4173,0.4173,6.4373,-1.7859,164.7264,0.7,340.11,51.039472,13.793057,142.22,2.44,1.33,2.05,4.11,3,8,8,34.91
270614,113551800,1403868951971.718,-0.2647,-1.1473,-9.9433,-0.2782,-0.5565,0.4173,6.34,-1.636,164.6561,0.7,340.11,51.039472,13.793057,142.22,2.44,1.33,2.05,4.11,3,8,8,34.91
270614,113551800,1403868951987.2551,-0.2353,-1.0786,-9.7962,-0.0695,-0.4173,0.3478,6.3706,-1.7046,164.6214,0.7,340.11,51.039472,13.793057,142.22,2.44,1.33,2.05,4.11,3,8,8,34.91
270614,113551800,1403868952001.7632,-0.2843,-1.1473,-9.8746,-0.2782,-0.4173,0.2782,6.5759,-1.7347,164.6422,0.7,340.27,51.039472,13.793057,142.22,2.44,1.33,2.05,4.11,3,8,8,34.91
270614,113551900,1403868952020.71,-0.2549,-1.1375,-9.8158,-0.0695,-0.4869,0.4173,6.5151,-1.8678,164.6512,0.7,340.27,51.039472,13.793056,142.22,2.44,1.32,2.05,4.11,3,8,8,34.91
270614,113551900,1403868952050.482,-0.2941,-1.0786,-9.8648,-0.1391,-0.4173,0.1391,6.5662,-1.7967,164.6203,0.7,340.27,51.039472,13.793056,142.22,2.44,1.32,2.05,4.11,3,8,8,34.91
270614,113551900,1403868952071.6501,-0.2843,-1.0982,-9.8844,-0.0695,-0.6956,0.2782,6.605,-1.8972,164.6831,0.7,340.27,51.039472,13.793056,142.22,2.44,1.32,2.05,4.11,3,8,8,34.91
270614,113551900,1403868952083.111,-0.2255,-1.1276,-10.0021,-0.3478,-0.4173,0.2086,6.58,-1.7881,164.7673,0.7,340.27,51.039472,13.793056,142.22,2.44,1.32,2.05,4.11,3,8,8,34.91
270614,113551900,1403868952101.908,-0.3628,-1.2257,-9.7766,-0.2086,-0.4869,0.2782,6.6598,-1.7541,164.8443,0.7,340.43,51.039472,13.793056,142.22,2.44,1.32,2.05,4.11,3,8,8,34.91
270614,113552000,1403868952118.186,-0.3628,-1.0786,-9.8943,0.0,-0.3478,0.4173,6.5913,-1.8698,164.8845,0.7,340.43,51.039472,13.793056,142.22,2.44,1.32,2.05,4.12,3,8,8,34.91
270614,113552000,1403868952150.2,-0.3726,-1.1767,-9.8943,-0.0695,-0.626,0.2086,6.6678,-1.7753,164.8835,0.7,340.43,51.039472,13.793056,142.22,2.44,1.32,2.05,4.12,3,8,8,34.91
270614,113552000,1403868952161.618,-0.2941,-1.1865,-9.9629,-0.1391,-0.4869,0.4173,6.6006,-1.8921,164.8752,0.7,340.43,51.039472,13.793056,142.22,2.44,1.32,2.05,4.12,3,8,8,34.91
270614,113552000,1403868952178.3608,-0.2647,-1.108,-9.9531,-0.2086,-0.4173,0.3478,6.5616,-1.7168,164.8926,0.7,340.43,51.039472,13.793056,142.22,2.44,1.32,2.05,4.12,3,8,8,34.91
270614,113552000,1403868952198.343,-0.3039,-1.1963,-9.9335,0.0,-0.4173,0.4173,6.6995,-1.8016,164.972,0.71,340.58,51.039472,13.793056,142.22,2.44,1.32,2.05,4.12,3,8,8,34.91
270614,113552100,1403868952222.031,-0.2745,-1.1963,-9.8256,-0.2086,-0.5565,0.2782,6.6967,-1.6656,165.0301,0.71,340.58,51.039472,13.793056,142.22,2.45,1.33,2.05,4.12,3,8,8,34.95
270614,113552100,1403868952241.873,-0.3334,-1.108,-9.9629,-0.1391,-0.5565,0.3478,6.5944,-1.7409,165.0818,0.71,340.58,51.039472,13.793056,142.22,2.45,1.33,2.05,4.12,3,8,8,34.95
270614,113552100,1403868952258.358,-0.2353,-1.2355,-9.8844,-0.3478,-0.626,0.4869,6.7721,-1.6605,165.1439,0.71,340.58,51.039472,13.793056,142.22,2.45,1.33,2.05,4.12,3,8,8,34.95
270614,113552100,1403868952278.894,-0.3334,-1.1767,-9.9041,-0.1391,-0.4869,0.3478,6.7336,-1.7415,165.1943,0.71,340.58,51.039472,13.793056,142.22,2.45,1.33,2.05,4.12,3,8,8,34.95
270614,113552100,1403868952297.814,-0.2745,-1.1669,-9.8943,-0.1391,-0.4869,0.2782,6.6342,-1.7555,165.2395,0.71,340.74,51.039472,13.793056,142.22,2.45,1.33,2.05,4.12,3,8,8,34.95
270614,113552200,1403868952330.483,-0.2941,-1.0492,-9.9629,-0.0695,-0.4869,0.2782,6.4999,-1.7743,165.3252,0.71,340.74,51.039472,13.793056,142.22,2.44,1.33,2.05,4.12,3,8,8,34.95
270614,113552200,1403868952342.794,-0.3334,-1.1473,-9.855,-0.0695,-0.4869,0.1391,6.6767,-1.718,165.4145,0.71,340.74,51.039472,13.793056,142.22,2.44,1.33,2.05,4.12,3,8,8,34.95
270614,113552200,1403868952358.094,-0.3432,-1.059,-9.9335,-0.0695,-0.5565,0.2086,6.5878,-1.9008,165.4888,0.71,340.74,51.039472,13.793056,142.22,2.44,1.33,2.05,4.12,3,8,8,34.95
270614,113552200,1403868952378.381,-0.402,-1.1178,-9.9237,-0.1391,-0.4869,0.3478,6.6195,-1.9046,165.5833,0.71,340.74,51.039472,13.793056,142.22,2.44,1.33,2.05,4.12,3,8,8,34.95
270614,113552200,1403868952398.435,-0.3334,-1.1963,-9.8943,0.0,-0.4869,0.4173,6.5668,-1.7624,165.5502,0.71,340.9,51.039472,13.793056,142.22,2.44,1.33,2.05,4.12,3,8,8,34.95
270614,113552300,1403868952420.783,-0.2941,-1.1473,-9.8844,-0.2086,-0.4173,0.2782,6.4025,-1.7855,165.5257,0.71,340.9,51.039473,13.793056,142.22,2.44,1.33,2.05,4.13,3,8,8,34.95
270614,113552300,1403868952438.598,-0.353,-1.1375,-9.8943,-0.3478,-0.4173,0.4869,6.4481,-1.6962,165.5264,0.71,340.9,51.039473,13.793056,142.22,2.44,1.33,2.05,4.13,3,8,8,34.95
270614,113552300,1403868952458.7268,-0.2745,-1.1473,-10.0217,-0.3478,-0.3478,0.4869,6.2931,-1.5632,165.4752,0.71,340.9,51.039473,13.793056,142.22,2.44,1.33,2.05,4.13,3,8,8,34.95
270614,113552300,1403868952478.68,-0.2745,-1.1571,-9.855,-0.2086,-0.5565,0.3478,6.2314,-1.5921,165.2581,0.71,340.9,51.039473,13.793056,142.22,2.44,1.33,2.05,4.13,3,8,8,34.95
270614,113552300,1403868952497.926,-0.3137,-1.1473,-9.8648,0.0,-0.626,0.4869,6.2667,-1.7351,165.0908,0.72,341.05,51.039473,13.793056,142.22,2.44,1.33,2.05,4.13,3,8,8,34.95
270614,113552400,1403868952520.732,-0.2941,-1.1473,-9.9139,0.0,-0.3478,0.626,6.2908,-1.6574,164.9403,0.72,341.05,51.039473,13.793056,142.22,2.44,1.32,2.05,4.13,3,8,8,34.95
270614,113552400,1403868952539.728,-0.3432,-1.0884,-9.9139,-0.1391,-0.4173,0.3478,6.2457,-1.616,164.7849,0.72,341.05,51.039473,13.793056,142.22,2.44,1.32,2.05,4.13,3,8,8,34.95
270614,113552400,1403868952557.954,-0.2843,-1.1865,-9.855,-0.2782,-0.5565,0.3478,6.2932,-1.6653,164.6685,0.72,341.05,51.039473,13.793056,142.22,2.44,1.32,2.05,4.13,3,8,8,34.95
270614,113552400,1403868952578.296,-0.3039,-1.0786,-9.855,-0.2086,-0.4869,0.4173,6.2414,-1.5971,164.5844,0.72,341.05,51.039473,13.793056,142.22,2.44,1.32,2.05,4.13,3,8,8,34.95
270614,113552400,1403868952598.5562,-0.3039,-1.1571,-9.806,-0.0695,-0.5565,0.2782,6.4307,-1.6831,164.5314,0.72,341.19,51.039473,13.793056,142.22,2.44,1.32,2.05,4.13,3,8,8,34.95
270614,113552500,1403868952631.202,-0.3432,-1.1473,-10.0315,-0.0695,-0.6956,0.4173,6.4669,-1.7121,164.4645,0.72,341.19,51.039473,13.793056,142.22,2.44,1.33,2.05,4.13,3,8,8,34.95
270614,113552500,1403868952645.845,-0.3334,-1.1963,-9.9629,-0.2086,-0.4869,0.3478,6.4484,-1.72,164.4228,0.72,341.19,51.039473,13.793056,142.22,2.44,1.33,2.05,4.13,3,8,8,34.95
270614,113552500,1403868952671.0242,-0.2745,-1.1375,-9.9139,-0.2086,-0.4869,0.2086,6.446,-1.745,164.3684,0.72,341.19,51.039473,13.793056,142.22,2.44,1.33,2.05,4.13,3,8,8,34.95
270614,113552500,1403868952685.6338,-0.2941,-1.1473,-9.9139,-0.2782,-0.626,0.3478,6.4494,-1.6604,164.2701,0.72,341.19,51.039473,13.793056,142.22,2.44,1.33,2.05,4.13,3,8,8,34.95
270614,113552500,1403868952700.8518,-0.3235,-1.1865,-9.806,-0.2782,-0.3478,0.3478,6.5012,-1.6013,164.1844,0.72,341.32,51.039473,13.793056,142.22,2.44,1.33,2.05,4.13,3,8,8,34.95
270614,113552600,1403868952719.747,-0.2353,-1.1178,-9.9139,-0.2782,-0.6956,0.2782,6.3958,-1.5333,164.1234,0.72,341.32,51.039473,13.793056,142.22,2.44,1.33,2.05,4.13,3,8,8,34.95
270614,113552600,1403868952743.561,-0.2647,-1.0884,-9.9531,-0.2086,-0.626,0.2782,6.4289,-1.7259,164.1177,0.72,341.32,51.039473,13.793056,142.22,2.44,1.33,2.05,4.13,3,8,8,34.95
270614,113552600,1403868952758.196,-0.3334,-1.1178,-9.9629,-0.1391,-0.626,0.3478,6.4214,-1.7709,164.0746,0.72,341.32,51.039473,13.793056,142.22,2.44,1.33,2.05,4.13,3,8,8,34.95
270614,113552600,1403868952778.462,-0.2549,-1.1276,-10.0315,-0.2086,-0.5565,0.1391,6.4427,-1.5405,164.0518,0.72,341.32,51.039473,13.793056,142.22,2.44,1.33,2.05,4.13,3,8,8,34.95
270614,113552600,1403868952797.5718,-0.3137,-1.1473,-9.8844,-0.2782,-0.626,0.4173,6.402,-1.5917,164.0195,0.72,341.46,51.039473,13.793056,142.22,2.44,1.33,2.05,4.13,3,8,8,34.95
270614,113552700,1403868952819.05,-0.3726,-1.1375,-9.9335,-0.2086,-0.5565,0.3478,6.397,-1.7661,163.9451,0.72,341.46,51.039473,13.793056,142.22,2.44,1.33,2.05,4.14,3,8,8,34.95
270614,113552700,1403868952840.097,-0.2255,-1.108,-9.9237,0.0695,-0.5565,0.1391,6.5037,-1.5654,163.8855,0.72,341.46,51.039473,13.793056,142.22,2.44,1.33,2.05,4.14,3,8,8,34.95
270614,113552700,1403868952860.707,-0.2353,-1.1375,-9.9237,-0.0695,-0.4173,0.3478,6.4406,-1.5532,163.8175,0.72,341.46,51.039473,13.793056,142.22,2.44,1.33,2.05,4.14,3,8,8,34.95
270614,113552700,1403868952877.795,-0.2843,-1.1276,-9.9531,0.0,-0.5565,0.3478,6.7241,-1.7483,164.0269,0.72,341.46,51.039473,13.793056,142.22,2.44,1.33,2.05,4.14,3,8,8,34.95
270614,113552700,1403868952898.231,-0.353,-1.1767,-9.8844,-0.2782,-0.4173,0.3478,6.8139,-1.7241,164.1297,0.73,341.5899,51.039473,13.793056,142.22,2.44,1.33,2.05,4.14,3,8,8,34.95
270614,113552800,1403868952920.106,-0.353,-1.1669,-9.8943,-0.2086,-0.5565,0.4173,6.7179,-1.7378,164.1978,0.73,341.5899,51.039474,13.793056,142.22,2.44,1.33,2.05,4.14,3,8,8,34.95
270614,113552800,1403868952939.083,-0.2647,-1.1571,-9.9237,-0.2086,-0.4869,0.4869,6.5622,-1.6806,164.1622,0.73,341.5899,51.039474,13.793056,142.22,2.44,1.33,2.05,4.14,3,8,8,34.95
270614,113552800,1403868952958.205,-0.2647,-1.1178,-9.9237,-0.3478,-0.4173,0.5565,6.4626,-1.6422,164.1084,0.73,341.5899,51.039474,13.793056,142.22,2.44,1.33,2.05,4.14,3,8,8,34.95
270614,113552800,1403868952978.461,-0.2843,-1.1276,-9.9237,-0.2086,-0.5565,0.5565,6.4063,-1.738,164.0602,0.73,341.5899,51.039474,13.793056,142.22,2.44,1.33,2.05,4.14,3,8,8,34.95
270614,113552800,1403868953000.739,-0.3432,-1.0982,-9.8158,-0.1391,-0.4869,0.4869,6.5186,-1.8868,164.0613,0.73,341.72,51.039474,13.793056,142.22,2.44,1.33,2.05,4.14,3,8,8,34.95
270614,113552900,1403868953019.0251,-0.2941,-1.2159,-9.8452,-0.0695,-0.4869,0.4173,6.5659,-1.6782,164.1188,0.73,341.72,51.039474,13.793056,142.22,2.44,1.33,2.05,4.14,3,8,8,34.95
270614,113552900,1403868953039.4858,-0.2451,-1.108,-9.9433,-0.1391,-0.4869,0.3478,6.7197,-1.7754,164.1586,0.73,341.72,51.039474,13.793056,142.22,2.44,1.33,2.05,4.14,3,8,8,34.95
270614,113552900,1403868953057.6948,-0.2941,-1.1963,-9.8943,-0.2086,-0.4173,0.3478,6.6169,-1.7223,164.1663,0.73,341.72,51.039474,13.793056,142.22,2.44,1.33,2.05,4.14,3,8,8,34.95
270614,113552900,1403868953077.791,-0.3432,-1.1473,-9.9923,-0.1391,-0.5565,0.1391,6.8659,-1.8435,164.3567,0.73,341.72,51.039474,13.793056,142.22,2.44,1.33,2.05,4.14,3,8,8,34.95
270614,113552900,1403868953100.727,-0.1961,-1.059,-9.8746,0.0,-0.4869,0.4173,6.663,-1.7964,164.5289,0.74,341.85,51.039474,13.793056,142.22,2.44,1.33,2.05,4.14,3,8,8,34.95
270614,113553000,1403868953120.148,-0.2745,-1.1276,-10.0021,-0.1391,-0.5565,0.2086,6.8452,-1.8016,164.6898,0.74,341.85,51.039474,13.793056,142.22,2.44,1.33,2.05,4.14,3,8,8,34.95
270614,113553000,1403868953137.9648,-0.4118,-1.1178,-9.8844,-0.1391,-0.3478,0.4869,6.5103,-1.7387,164.6182,0.74,341.85,51.039474,13.793056,142.22,2.44,1.33,2.05,4.14,3,8,8,34.95
270614,113553000,1403868953158.3108,-0.3039,-1.1571,-9.9531,-0.1391,-0.5565,0.2782,6.4146,-1.6829,164.5397,0.74,341.85,51.039474,13.793056,142.22,2.44,1.33,2.05,4.14,3,8,8,34.95
270614,113553000,1403868953178.612,-0.3137,-1.1571,-9.9237,-0.1391,-0.4869,0.4869,6.476,-1.635,164.4596,0.74,341.85,51.039474,13.793056,142.22,2.44,1.33,2.05,4.14,3,8,8,34.95
270614,113553000,1403868953198.06,-0.3137,-1.2551,-9.9433,0.0695,-0.4173,0.3478,6.4822,-1.6007,164.3976,0.74,341.98,51.039474,13.793056,142.22,2.44,1.33,2.05,4.14,3,8,8,34.95
270614,113553100,1403868953219.2249,-0.2157,-1.1865,-9.9629,-0.0695,-0.4869,0.4869,6.5301,-1.5813,164.354,0.74,341.98,51.039474,13.793056,142.22,2.44,1.33,2.05,4.15,3,8,8,34.95
270614,113553100,1403868953238.378,-0.3432,-1.1375,-10.0708,-0.1391,-0.626,0.4869,6.4908,-1.904,164.3271,0.74,341.98,51.039474,13.793056,142.22,2.44,1.33,2.05,4.15,3,8,8,34.95
270614,113553100,1403868953257.917,-0.1961,-1.1178,-9.9433,-0.1391,-0.4869,0.4173,6.5373,-1.6619,164.2889,0.74,341.98,51.039474,13.793056,142.22,2.44,1.33,2.05,4.15,3,8,8,34.95
270614,113553100,1403868953277.975,-0.3039,-1.1375,-9.9825,-0.1391,-0.626,0.2086,6.5659,-1.843,164.2764,0.74,341.98,51.039474,13.793056,142.22,2.44,1.33,2.05,4.15,3,8,8,34.95
270614,113553100,1403868953300.72,-0.3039,-1.1669,-9.9531,-0.1391,-0.4869,0.3478,6.5617,-1.7769,164.2657,0.74,342.1,51.039474,13.793056,142.22,2.44,1.33,2.05,4.15,3,8,8,34.95
270614,113553200,1403868953318.927,-0.2941,-1.1276,-9.9923,-0.2086,-0.5565,0.4869,6.5574,-1.8124,164.2548,0.74,342.1,51.039474,13.793056,142.22,2.44,1.32,2.05,4.15,3,8,8,34.95
270614,113553200,1403868953342.32,-0.3432,-1.1473,-9.9041,-0.3478,-0.4869,0.3478,6.7601,-1.6822,164.3505,0.74,342.1,51.039474,13.793056,142.22,2.44,1.32,2.05,4.15,3,8,8,34.95
270614,113553200,1403868953358.772,-0.3235,-1.0688,-9.9433,-0.2782,-0.4869,0.3478,6.7434,-1.8244,164.5115,0.74,342.1,51.039474,13.793056,142.22,2.44,1.32,2.05,4.15,3,8,8,34.95
270614,113553200,1403868953377.657,-0.2745,-1.1571,-9.8256,-0.1391,-0.5565,0.2782,6.7481,-1.8542,164.6208,0.74,342.1,51.039474,13.793056,142.22,2.44,1.32,2.05,4.15,3,8,8,34.95
270614,113553200,1403868953408.481,-0.3628,-1.1865,-9.8158,-0.2782,-0.4869,0.2782,6.6716,-1.8637,164.7329,0.75,342.22,51.039474,13.793056,142.22,2.44,1.32,2.05,4.15,3,8,8,34.95
270614,113553300,1403868953432.397,-0.3334,-1.1571,-9.8746,-0.2086,-0.4173,0.2086,6.4463,-1.7331,164.6224,0.75,342.22,51.039475,13.793056,142.22,2.45,1.33,2.05,4.15,3,8,8,34.95
270614,113553300,1403868953450.588,-0.353,-1.1963,-9.9531,0.0695,-0.4173,0.3478,6.4919,-1.6378,164.5495,0.75,342.22,51.039475,13.793056,142.22,2.45,1.33,2.05,4.15,3,8,8,34.95
270614,113553300,1403868953471.12,-0.2647,-1.1767,-9.9629,-0.1391,-0.626,0.4173,6.4293,-1.6705,164.5004,0.75,342.22,51.039475,13.793056,142.22,2.45,1.33,2.05,4.15,3,8,8,34.95
270614,113553300,1403868953481.721,-0.2157,-1.1473,-9.8943,-0.2086,-0.6956,0.4173,6.6658,-1.6927,164.574,0.75,342.22,51.039475,13.793056,142.22,2.45,1.33,2.05,4.15,3,8,8,34.95
270614,113553300,1403868953499.248,-0.3334,-1.1571,-9.9041,-0.0695,-0.4869,0.4869,6.6508,-1.783,164.6613,0.75,342.3399,51.039475,13.793056,142.22,2.45,1.33,2.05,4.15,3,8,8,34.95
270614,113553400,1403868953522.736,-0.3432,-1.1375,-9.9237,-0.1391,-0.4173,0.626,6.6815,-1.7872,164.7402,0.75,342.3399,51.039475,13.793055,142.22,2.45,1.33,2.05,4.15,3,8,8,34.95
270614,113553400,1403868953538.196,-0.3137,-1.1963,-9.9923,-0.0695,-0.4869,0.3478,6.5625,-1.6986,164.8038,0.75,342.3399,51.039475,13.793055,142.22,2.45,1.33,2.05,4.15,3,8,8,34.95
270614,113553400,1403868953558.903,-0.2941,-1.0884,-9.9531,-0.2782,-0.5565,0.5565,6.5265,-1.6834,164.8292,0.75,342.3399,51.039475,13.793055,142.22,2.45,1.33,2.05,4.15,3,8,8,34.95
270614,113553400,1403868953577.802,-0.2843,-1.1571,-9.9041,-0.0695,-0.4869,0.4869,6.6095,-1.7107,164.8473,0.75,342.3399,51.039475,13.793055,142.22,2.45,1.33,2.05,4.15,3,8,8,34.95
270614,113553400,1403868953598.898,-0.3235,-1.108,-9.8746,-0.0695,-0.4173,0.3478,6.5617,-1.6457,164.8795,0.75,342.46,51.039475,13.793055,142.22,2.45,1.33,2.05,4.15,3,8,8,34.95
270614,113553500,1403868953619.133,-0.3922,-1.0982,-9.9139,-0.2086,-0.3478,0.3478,6.5176,-1.7868,164.8679,0.75,342.46,51.039475,13.793055,142.22,2.45,1.33,2.05,4.15,3,8,8,34.95
270614,113553500,1403868953637.5151,-0.3824,-1.1767,-9.9531,-0.1391,-0.5565,0.5565,6.5227,-1.6557,164.8309,0.75,342.46,51.039475,13.793055,142.22,2.45,1.33,2.05,4.16,3,8,8,34.95
270614,113553500,1403868953658.082,-0.3039,-1.1963,-9.8746,-0.2086,-0.4173,0.2782,6.5828,-1.6372,164.7974,0.75,342.46,51.039475,13.793055,142.22,2.45,1.33,2.05,4.16,3,8,8,34.95
270614,113553500,1403868953678.236,-0.3334,-1.1963,-9.9139,0.0,-0.4869,0.2782,6.451,-1.8338,164.7908,0.75,342.46,51.039475,13.793055,142.22,2.45,1.33,2.05,4.16,3,8,8,34.95
270614,113553500,1403868953699.9158,-0.3824,-1.108,-9.9041,-0.2086,-0.4173,0.4173,6.5928,-1.7428,164.7701,0.76,342.57,51.039475,13.793055,142.22,2.45,1.33,2.05,4.16,3,8,8,34.95
270614,113553600,1403868953718.952,-0.3334,-1.1276,-9.8452,-0.1391,-0.4869,0.2782,6.5081,-1.8293,164.7733,0.76,342.57,51.039475,13.793055,142.22,2.45,1.33,2.05,4.16,3,8,8,34.95
270614,113553600,1403868953742.398,-0.3039,-1.0786,-9.9139,-0.0695,-0.5565,0.2782,6.4424,-1.7396,164.7504,0.76,342.57,51.039475,13.793055,142.22,2.44,1.33,2.05,4.16,3,8,8,34.95
270614,113553600,1403868953758.648,-0.3334,-1.1375,-9.9629,-0.0695,-0.5565,0.2782,6.4006,-1.7506,164.6056,0.76,342.57,51.039475,13.793055,142.22,2.44,1.33,2.05,4.16,3,8,8,34.95
270614,113553600,1403868953777.7869,-0.2941,-1.1375,-9.8746,-0.2782,-0.4173,0.2782,6.3247,-1.6361,164.5161,0.76,342.57,51.039475,13.793055,142.22,2.44,1.33,2.05,4.16,3,8,8,34.95
270614,113553600,1403868953799.664,-0.2843,-1.0982,-9.9433,-0.0695,-0.5565,0.2086,6.3971,-1.5101,164.4445,0.76,342.7,51.039475,13.793055,142.22,2.44,1.33,2.05,4.16,3,8,8,34.95
270614,113553700,1403868953819.8171,-0.2843,-1.1571,-9.9335,-0.2086,-0.4173,0.4869,6.3297,-1.585,164.3173,0.76,342.7,51.039475,13.793055,142.22,2.44,1.33,2.05,4.16,3,8,8,34.95
270614,113553700,1403868953838.759,-0.353,-1.0688,-9.8746,-0.0695,-0.626,0.3478,6.2265,-1.6985,164.1912,0.76,342.7,51.039475,13.793055,142.22,2.44,1.33,2.05,4.16,3,8,8,34.95
270614,113553700,1403868953858.0872,-0.353,-1.059,-9.9825,-0.2086,-0.5565,0.4173,6.2521,-1.7116,164.0733,0.76,342.7,51.039475,13.793055,142.22,2.44,1.33,2.05,4.16,3,8,8,34.95
270614,113553700,1403868953878.306,-0.3235,-1.1669,-9.8256,-0.1391,-0.626,0.4869,6.5166,-1.8249,164.0836,0.76,342.7,51.039475,13.793055,142.22,2.44,1.33,2.05,4.16,3,8,8,34.95
270614,113553700,1403868953900.373,-0.3039,-1.0688,-9.8844,-0.2782,-0.4869,0.3478,6.6814,-1.8805,164.2015,0.76,342.82,51.039475,13.793055,142.22,2.44,1.33,2.05,4.16,3,8,8,34.95
270614,113553800,1403868953930.412,-0.3039,-1.0884,-9.8648,-0.2782,-0.626,0.2782,6.616,-1.7334,164.2897,0.76,342.82,51.039475,13.793055,142.22,2.44,1.33,2.05,4.16,3,8,8,34.95
270614,113553800,1403868953945.2778,-0.2745,-1.1473,-9.806,-0.1391,-0.4173,0.3478,6.7017,-1.711,164.3679,0.76,342.82,51.039476,13.793055,142.22,2.45,1.33,2.05,4.17,3,8,8,34.95
270614,113553800,1403868953961.673,-0.3235,-1.1473,-9.9139,-0.1391,-0.5565,0.2782,6.8299,-1.8439,164.5535,0.76,342.82,51.039476,13.793055,142.22,2.45,1.33,2.05,4.17,3,8,8,34.95
270614,113553800,1403868953977.7751,-0.353,-1.1963,-9.9531,-0.0695,-0.4869,0.3478,6.8135,-1.7702,164.6846,0.76,342.82,51.039476,13.793055,142.22,2.45,1.33,2.05,4.17,3,8,8,34.95
270614,113553800,1403868954010.241,-0.3334,-1.1276,-9.9825,-0.0695,-0.5565,0.2086,6.813,-1.8513,164.838,0.76,342.82,51.039476,13.793055,142.22,2.45,1.33,2.05,4.17,3,8,8,34.95
270614,113553900,1403868954033.617,-0.2647,-1.1865,-10.0021,-0.1391,-0.4173,0.2086,6.4795,-1.6742,164.7814,0.77,343.06,51.039476,13.793055,142.22,2.45,1.33,2.05,4.17,3,8,8,34.95
270614,113553900,1403868954047.3052,-0.2451,-1.1669,-9.8746,-0.2086,-0.626,0.2782,6.3661,-1.6096,164.7048,0.77,343.06,51.039476,13.793055,142.22,2.44,1.33,2.05,4.17,3,8,8,34.95
270614,113553900,1403868954071.158,-0.2353,-1.0786,-9.8158,-0.0695,-0.4173,0.2782,6.3729,-1.6858,164.6572,0.77,343.06,51.039476,13.793055,142.22,2.44,1.33,2.05,4.17,3,8,8,34.95
270614,113553900,1403868954081.6938,-0.2941,-1.0982,-9.9237,-0.1391,-0.626,0.1391,6.5148,-1.8953,164.7085,0.77,343.06,51.039476,13.793055,142.22,2.44,1.33,2.05,4.17,3,8,8,34.95
270614,113553900,1403868954110.121,-0.2843,-1.1865,-9.9433,-0.1391,-0.4869,0.4173,6.6447,-1.9022,164.8568,0.77,343.06,51.039476,13.793055,142.22,2.44,1.33,2.05,4.17,3,8,8,34.95
270614,113554000,1403868954133.576,-0.2941,-1.1178,-9.9139,0.0,-0.4173,0.4173,6.6164,-1.7796,164.9575,0.77,343.19,51.039476,13.793055,142.22,2.44,1.33,2.05,4.17,3,8,8,34.95
270614,113554000,1403868954148.637,-0.2255,-1.1669,-10.0119,-0.2782,-0.4173,0.3478,6.7017,-1.6421,165.0989,0.77,343.19,51.039476,13.793055,142.22,2.44,1.33,2.05,4.17,3,8,8,34.95
270614,113554000,1403868954170.988,-0.2647,-1.1178,-9.9531,0.0,-0.3478,0.4869,6.3058,-1.4914,164.9874,0.77,343.19,51.039476,13.793055,142.22,2.44,1.33,2.05,4.17,3,8,8,34.95
270614,113554000,1403868954191.711,-0.3039,-1.0884,-9.9335,-0.1391,-0.626,0.4173,6.2846,-1.7188,164.933,0.77,343.19,51.039476,13.793055,142.22,2.44,1.33,2.05,4.17,3,8,8,34.95
270614,113554000,1403868954211.082,-0.2647,-1.1865,-9.9433,-0.2782,-0.5565,0.4173,6.4023,-1.5463,164.8499,0.77,343.19,51.039476,13.793055,142.22,2.44,1.33,2.05,4.17,3,8,8,34.95
270614,113554100,1403868954231.524,-0.3039,-1.0884,-9.9531,-0.1391,-0.4173,0.4173,6.3402,-1.5476,164.8058,0.78,343.31,51.039476,13.793055,142.22,2.44,1.33,2.05,4.17,3,8,8,34.99
270614,113554100,1403868954245.405,-0.2451,-1.1276,-9.9727,-0.3478,-0.5565,0.4173,6.4339,-1.6257,164.7998,0.78,343.31,51.039476,13.793055,142.22,2.44,1.32,2.05,4.17,3,8,8,34.99
270614,113554100,1403868954271.9988,-0.3628,-1.0688,-9.9041,-0.2086,-0.626,0.3478,6.5312,-1.809,164.7834,0.78,343.31,51.039476,13.793055,142.22,2.44,1.32,2.05,4.17,3,8,8,34.99
270614,113554100,1403868954292.207,-0.3235,-1.1767,-9.9041,-0.1391,-0.3478,0.3478,6.4556,-1.7629,164.6986,0.78,343.31,51.039476,13.793055,142.22,2.44,1.32,2.05,4.17,3,8,8,34.99
270614,113554100,1403868954314.675,-0.3334,-1.0688,-9.8648,-0.0695,-0.5565,0.2086,6.3757,-1.6937,164.6536,0.78,343.31,51.039476,13.793055,142.22,2.44,1.32,2.05,4.17,3,8,8,34.99
270614,113554200,1403868954338.83,-0.3726,-1.1767,-9.9629,-0.2086,-0.5565,0.2782,6.4528,-1.7636,164.6206,0.78,343.43,51.039476,13.793055,142.22,2.44,1.32,2.05,4.17,3,8,8,34.99
270614,113554200,1403868954354.697,-0.3137,-1.1375,-9.9825,-0.2086,-0.5565,0.3478,6.4995,-1.7087,164.5555,0.78,343.43,51.039476,13.793055,142.22,2.44,1.32,2.05,4.18,3,8,8,34.99
270614,113554200,1403868954374.905,-0.3137,-1.1473,-9.9139,-0.2086,-0.4869,0.3478,6.7635,-1.7499,164.6469,0.78,343.43,51.039476,13.793055,142.22,2.44,1.32,2.05,4.18,3,8,8,34.99
270614,113554200,1403868954391.0142,-0.2647,-1.1473,-10.0021,-0.1391,-0.5565,0.3478,6.6705,-1.7812,164.7422,0.78,343.43,51.039476,13.793055,142.22,2.44,1.32,2.05,4.18,3,8,8,34.99
